[{"fields": {"model": "logentry", "app_label": "admin"}, "model": "contenttypes.contenttype", "pk": 1}, {"fields": {"model": "permission", "app_label": "auth"}, "model": "contenttypes.contenttype", "pk": 2}, {"fields": {"model": "group", "app_label": "auth"}, "model": "contenttypes.contenttype", "pk": 3}, {"fields": {"model": "user", "app_label": "auth"}, "model": "contenttypes.contenttype", "pk": 4}, {"fields": {"model": "contenttype", "app_label": "contenttypes"}, "model": "contenttypes.contenttype", "pk": 5}, {"fields": {"model": "session", "app_label": "sessions"}, "model": "contenttypes.contenttype", "pk": 6}, {"fields": {"model": "fulldirection", "app_label": "TPVpnapp"}, "model": "contenttypes.contenttype", "pk": 7}, {"fields": {"model": "market", "app_label": "TPVpnapp"}, "model": "contenttypes.contenttype", "pk": 8}, {"fields": {"model": "provider", "app_label": "TPVpnapp"}, "model": "contenttypes.contenttype", "pk": 9}, {"fields": {"model": "offer", "app_label": "TPVpnapp"}, "model": "contenttypes.contenttype", "pk": 10}, {"fields": {"model": "product", "app_label": "TPVpnapp"}, "model": "contenttypes.contenttype", "pk": 11}, {"fields": {"model": "worker", "app_label": "TPVpnapp"}, "model": "contenttypes.contenttype", "pk": 12}, {"fields": {"model": "client", "app_label": "TPVpnapp"}, "model": "contenttypes.contenttype", "pk": 13}, {"fields": {"model": "sale", "app_label": "TPVpnapp"}, "model": "contenttypes.contenttype", "pk": 14}, {"fields": {"model": "productsale", "app_label": "TPVpnapp"}, "model": "contenttypes.contenttype", "pk": 15}, {"fields": {"model": "notification", "app_label": "TPVpnapp"}, "model": "contenttypes.contenttype", "pk": 16}, {"fields": {"model": "configuration", "app_label": "TPVpnapp"}, "model": "contenttypes.contenttype", "pk": 17}, {"fields": {"model": "corsmodel", "app_label": "corsheaders"}, "model": "contenttypes.contenttype", "pk": 18}, {"fields": {"model": "bankdata", "app_label": "TPVpnapp"}, "model": "contenttypes.contenttype", "pk": 19}, {"fields": {"expire_date": "2017-01-22T16:56:47.420Z", "session_data": "YjY0NWFiOTU1NDhkYjE4YzhmMzVkNzAwZjk2Mjk4ZDU4MTg5MTg3NTp7Il9hdXRoX3VzZXJfaGFzaCI6ImRjZmI1NmQ0ODM0YjI0ZDNkMzY4MzE3NzAzY2E0MjAxMDZjYzUwOWMiLCJfYXV0aF91c2VyX2JhY2tlbmQiOiJkamFuZ28uY29udHJpYi5hdXRoLmJhY2tlbmRzLk1vZGVsQmFja2VuZCIsIl9hdXRoX3VzZXJfaWQiOiIyIn0="}, "model": "sessions.session", "pk": "0k09n3w01cjusmeagk3f5hxykxmyp6ql"}, {"fields": {"expire_date": "2017-02-01T19:51:41.993Z", "session_data": "YjY0NWFiOTU1NDhkYjE4YzhmMzVkNzAwZjk2Mjk4ZDU4MTg5MTg3NTp7Il9hdXRoX3VzZXJfaGFzaCI6ImRjZmI1NmQ0ODM0YjI0ZDNkMzY4MzE3NzAzY2E0MjAxMDZjYzUwOWMiLCJfYXV0aF91c2VyX2JhY2tlbmQiOiJkamFuZ28uY29udHJpYi5hdXRoLmJhY2tlbmRzLk1vZGVsQmFja2VuZCIsIl9hdXRoX3VzZXJfaWQiOiIyIn0="}, "model": "sessions.session", "pk": "8dnatlfk05mqug3fwm6aj1gq8gx9vnd1"}, {"fields": {"expire_date": "2017-01-22T13:02:50.737Z", "session_data": "MWE0YThiNDJlZDZhZjdiNDM4YTc2N2E0MTYzMTBiMjRhYTFiZGM2Njp7Il9hdXRoX3VzZXJfaGFzaCI6ImYwMGJjMmYwMGRjMGM1NDEzZjhmZDQ0ODY3YTA1NmQxYWEyYzEzYWEiLCJfYXV0aF91c2VyX2JhY2tlbmQiOiJkamFuZ28uY29udHJpYi5hdXRoLmJhY2tlbmRzLk1vZGVsQmFja2VuZCIsIl9hdXRoX3VzZXJfaWQiOiI1In0="}, "model": "sessions.session", "pk": "9556jnyln73lgv59b7ijh4kof29d1or9"}, {"fields": {"expire_date": "2017-01-22T12:55:38.678Z", "session_data": "NWY1NGVhNDFjNWI3MmM1YjhhMDI0ODdhNGIxNTBmMTdlMTE0MGY1Mzp7Il9hdXRoX3VzZXJfaGFzaCI6IjUwNDJiNDUxOWM4NDgyMmI3NmY1NjEzOGQ4MDkyYmZkZTQ4MDFiNDUiLCJfYXV0aF91c2VyX2JhY2tlbmQiOiJkamFuZ28uY29udHJpYi5hdXRoLmJhY2tlbmRzLk1vZGVsQmFja2VuZCIsIl9hdXRoX3VzZXJfaWQiOiI0In0="}, "model": "sessions.session", "pk": "di1u3v6pomhoran2l82o3axww5shk2am"}, {"fields": {"expire_date": "2017-02-01T20:34:13.987Z", "session_data": "YjY0NWFiOTU1NDhkYjE4YzhmMzVkNzAwZjk2Mjk4ZDU4MTg5MTg3NTp7Il9hdXRoX3VzZXJfaGFzaCI6ImRjZmI1NmQ0ODM0YjI0ZDNkMzY4MzE3NzAzY2E0MjAxMDZjYzUwOWMiLCJfYXV0aF91c2VyX2JhY2tlbmQiOiJkamFuZ28uY29udHJpYi5hdXRoLmJhY2tlbmRzLk1vZGVsQmFja2VuZCIsIl9hdXRoX3VzZXJfaWQiOiIyIn0="}, "model": "sessions.session", "pk": "oahojslrzjbexfnjjqjblo3ls7ylaekw"}, {"fields": {"province": "Ja\u00e9n", "direction": "C/ Bartolom\u00e9 P\u00e9rez de Guzm\u00e1n", "door": "Izquierda", "numDir": "12", "numFlat": 0, "location": "And\u00fajar", "postalCode": "23740", "stairs": ""}, "model": "TPVpnapp.fulldirection", "pk": 1}, {"fields": {"province": "Ja\u00e9n", "direction": "C/ Bartolom\u00e9 P\u00e9rez de Guzm\u00e1n", "door": "Izquierda", "numDir": "12", "numFlat": 0, "location": "And\u00fajar", "postalCode": "23740", "stairs": ""}, "model": "TPVpnapp.fulldirection", "pk": 2}, {"fields": {"province": "Ja\u00e9n", "direction": "C/ Bartolom\u00e9 P\u00e9rez de Guzm\u00e1n", "door": "Izquierda", "numDir": "12", "numFlat": 0, "location": "And\u00fajar", "postalCode": "23740", "stairs": ""}, "model": "TPVpnapp.fulldirection", "pk": 3}, {"fields": {"province": "Ja\u00e9n", "direction": "C/ Bartolom\u00e9 P\u00e9rez de Guzm\u00e1n", "door": "", "numDir": "12", "numFlat": null, "location": "And\u00fajar", "postalCode": "23740", "stairs": ""}, "model": "TPVpnapp.fulldirection", "pk": 4}, {"fields": {"province": "C\u00f3rdoba", "direction": "Calle", "door": "", "numDir": "S/N", "numFlat": null, "location": "And\u00fajar", "postalCode": "14004", "stairs": ""}, "model": "TPVpnapp.fulldirection", "pk": 5}, {"fields": {"province": "Ja\u00e9n", "direction": "C/ Bartolom\u00e9 P\u00e9rez de Guzm\u00e1n", "door": "", "numDir": "S/N", "numFlat": null, "location": "And\u00fajar", "postalCode": "23740", "stairs": ""}, "model": "TPVpnapp.fulldirection", "pk": 6}, {"fields": {"province": "Ja\u00e9n", "direction": "C/ Bartolom\u00e9 P\u00e9rez de Guzm\u00e1n", "door": "B", "numDir": "S/N", "numFlat": 1, "location": "And\u00fajar", "postalCode": "23740", "stairs": ""}, "model": "TPVpnapp.fulldirection", "pk": 7}, {"fields": {"province": "Ja\u00e9n", "direction": "C/ Bartolom\u00e9 P\u00e9rez de Guzm\u00e1n", "door": "", "numDir": "S/N", "numFlat": null, "location": "And\u00fajar", "postalCode": "23740", "stairs": ""}, "model": "TPVpnapp.fulldirection", "pk": 8}, {"fields": {"province": "C\u00f3rdoba", "direction": "\"C/ Avellano 15", "door": "", "numDir": "S/N", "numFlat": null, "location": "14006", "postalCode": " 3\u00ba 4\"", "stairs": ""}, "model": "TPVpnapp.fulldirection", "pk": 9}, {"fields": {"province": "C\u00f3rdoba", "direction": "\"C/ Avellano 15", "door": "", "numDir": "S/N", "numFlat": null, "location": "14006", "postalCode": " 3\u00ba 4\"", "stairs": ""}, "model": "TPVpnapp.fulldirection", "pk": 10}, {"fields": {"province": "C\u00f3rdoba", "direction": "\"C/ Avellano 15 | 3\u00ba 4\"", "door": "", "numDir": "S/N", "numFlat": null, "location": "C\u00f3rdoba", "postalCode": "14006", "stairs": ""}, "model": "TPVpnapp.fulldirection", "pk": 11}, {"fields": {"province": "C\u00f3rdoba", "direction": "\"C/ Avellano 15 | 3\u00ba 4\"", "door": "", "numDir": "S/N", "numFlat": null, "location": "C\u00f3rdoba", "postalCode": "14006", "stairs": ""}, "model": "TPVpnapp.fulldirection", "pk": 12}, {"fields": {"province": "C\u00f3rdoba", "direction": "\"C/ Avellano 15 | 3\u00ba 4\"", "door": "", "numDir": "S/N", "numFlat": null, "location": "C\u00f3rdoba", "postalCode": "14006", "stairs": ""}, "model": "TPVpnapp.fulldirection", "pk": 13}, {"fields": {"province": "C\u00f3rdoba", "direction": "C/ Avellano 15, 3\u00ba 4", "door": "", "numDir": "S/N", "numFlat": null, "location": "C\u00f3rdoba", "postalCode": "14006", "stairs": ""}, "model": "TPVpnapp.fulldirection", "pk": 14}, {"fields": {"province": "C\u00f3rdoba", "direction": "C/ Avellano 15, 3\u00ba 4", "door": "", "numDir": "S/N", "numFlat": null, "location": "C\u00f3rdoba", "postalCode": "14006", "stairs": ""}, "model": "TPVpnapp.fulldirection", "pk": 15}, {"fields": {"province": "C\u00f3rdoba", "direction": "C/ Avellano 15, 3\u00ba 4", "door": "", "numDir": "S/N", "numFlat": null, "location": "C\u00f3rdoba", "postalCode": "14006", "stairs": ""}, "model": "TPVpnapp.fulldirection", "pk": 16}, {"fields": {"province": "C\u00f3rdoba", "direction": "C/ Avellano 15, 3\u00ba 4", "door": "", "numDir": "S/N", "numFlat": null, "location": "C\u00f3rdoba", "postalCode": "14006", "stairs": ""}, "model": "TPVpnapp.fulldirection", "pk": 17}, {"fields": {"province": "C\u00f3rdoba", "direction": "C/ Avellano 15, 3\u00ba 4", "door": "", "numDir": "S/N", "numFlat": null, "location": "C\u00f3rdoba", "postalCode": "14006", "stairs": ""}, "model": "TPVpnapp.fulldirection", "pk": 18}, {"fields": {"province": "C\u00f3rdoba", "direction": "C/ Avellano 15, 3\u00ba 4", "door": "", "numDir": "S/N", "numFlat": null, "location": "C\u00f3rdoba", "postalCode": "14006", "stairs": ""}, "model": "TPVpnapp.fulldirection", "pk": 19}, {"fields": {"province": "C\u00f3rdoba", "direction": "C/ Avellano 15, 3\u00ba 4", "door": "", "numDir": "S/N", "numFlat": null, "location": "C\u00f3rdoba", "postalCode": "14006", "stairs": ""}, "model": "TPVpnapp.fulldirection", "pk": 20}, {"fields": {"province": "C\u00f3rdoba", "direction": "C/ Pintor Palomino 39, 3\u00ba2", "door": "", "numDir": "S/N", "numFlat": null, "location": "C\u00f3rdoba", "postalCode": "14006", "stairs": ""}, "model": "TPVpnapp.fulldirection", "pk": 21}, {"fields": {"province": "C\u00f3rdoba", "direction": "C/ Avellano 15, 3\u00ba 4", "door": "", "numDir": "S/N", "numFlat": null, "location": "C\u00f3rdoba", "postalCode": "14006", "stairs": ""}, "model": "TPVpnapp.fulldirection", "pk": 22}, {"fields": {"province": "C\u00f3rdoba", "direction": "C/ Avellano 15, 3\u00ba 4", "door": "", "numDir": "S/N", "numFlat": null, "location": "C\u00f3rdoba", "postalCode": "14006", "stairs": ""}, "model": "TPVpnapp.fulldirection", "pk": 23}, {"fields": {"province": "C\u00f3rdoba", "direction": "C/ Avellano 15, 3\u00ba 4", "door": "", "numDir": "S/N", "numFlat": null, "location": "C\u00f3rdoba", "postalCode": "14006", "stairs": ""}, "model": "TPVpnapp.fulldirection", "pk": 24}, {"fields": {"province": "C\u00f3rdoba", "direction": "C/ Avellano 15, 3\u00ba 4", "door": "", "numDir": "S/N", "numFlat": null, "location": "C\u00f3rdoba", "postalCode": "14006", "stairs": ""}, "model": "TPVpnapp.fulldirection", "pk": 25}, {"fields": {"province": "C\u00f3rdoba", "direction": "C/ Avellano 15, 3\u00ba 4", "door": "", "numDir": "S/N", "numFlat": null, "location": "C\u00f3rdoba", "postalCode": "14006", "stairs": ""}, "model": "TPVpnapp.fulldirection", "pk": 26}, {"fields": {"province": "C\u00f3rdoba", "direction": "C/ Pintor Palomino 39, 3\u00ba2", "door": "", "numDir": "S/N", "numFlat": null, "location": "C\u00f3rdoba", "postalCode": "14006", "stairs": ""}, "model": "TPVpnapp.fulldirection", "pk": 27}, {"fields": {"province": "C\u00f3rdoba", "direction": "C/ Avellano 15, 3\u00ba 4", "door": "", "numDir": "S/N", "numFlat": null, "location": "C\u00f3rdoba", "postalCode": "14006", "stairs": ""}, "model": "TPVpnapp.fulldirection", "pk": 28}, {"fields": {"province": "C\u00f3rdoba", "direction": "C/ Avellano 15, 3\u00ba 4", "door": "", "numDir": "S/N", "numFlat": null, "location": "C\u00f3rdoba", "postalCode": "14006", "stairs": ""}, "model": "TPVpnapp.fulldirection", "pk": 29}, {"fields": {"province": "C\u00f3rdoba", "direction": "C/ Avellano 15, 3\u00ba 4", "door": "", "numDir": "S/N", "numFlat": null, "location": "C\u00f3rdoba", "postalCode": "14006", "stairs": ""}, "model": "TPVpnapp.fulldirection", "pk": 30}, {"fields": {"province": "C\u00f3rdoba", "direction": "C/ Pintor Palomino 39, 3\u00ba2", "door": "", "numDir": "S/N", "numFlat": null, "location": "C\u00f3rdoba", "postalCode": "14006", "stairs": ""}, "model": "TPVpnapp.fulldirection", "pk": 31}, {"fields": {"province": "C\u00f3rdoba", "direction": "C/ Avellano 15, 3\u00ba 4", "door": "", "numDir": "S/N", "numFlat": null, "location": "C\u00f3rdoba", "postalCode": "14006", "stairs": ""}, "model": "TPVpnapp.fulldirection", "pk": 32}, {"fields": {"province": "C\u00f3rdoba", "direction": "C/ Pintor Palomino 39, 3\u00ba2", "door": "", "numDir": "S/N", "numFlat": null, "location": "C\u00f3rdoba", "postalCode": "14006", "stairs": ""}, "model": "TPVpnapp.fulldirection", "pk": 33}, {"fields": {"province": "C\u00f3rdoba", "direction": "C/ Avellano 15, 3\u00ba 4", "door": "", "numDir": "S/N", "numFlat": null, "location": "C\u00f3rdoba", "postalCode": "14006", "stairs": ""}, "model": "TPVpnapp.fulldirection", "pk": 34}, {"fields": {"province": "C\u00f3rdoba", "direction": "C/ Pintor Palomino 39, 3\u00ba2", "door": "", "numDir": "S/N", "numFlat": null, "location": "C\u00f3rdoba", "postalCode": "14006", "stairs": ""}, "model": "TPVpnapp.fulldirection", "pk": 35}, {"fields": {"province": "C\u00f3rdoba", "direction": "C/ Avellano 15, 3\u00ba 4", "door": "", "numDir": "S/N", "numFlat": null, "location": "C\u00f3rdoba", "postalCode": "14006", "stairs": ""}, "model": "TPVpnapp.fulldirection", "pk": 36}, {"fields": {"province": "C\u00f3rdoba", "direction": "C/ Pintor Palomino 39, 3\u00ba2", "door": "", "numDir": "S/N", "numFlat": null, "location": "C\u00f3rdoba", "postalCode": "14006", "stairs": ""}, "model": "TPVpnapp.fulldirection", "pk": 37}, {"fields": {"province": "C\u00f3rdoba", "direction": "C/ Avellano 15, 3\u00ba 4", "door": "", "numDir": "S/N", "numFlat": null, "location": "C\u00f3rdoba", "postalCode": "14006", "stairs": ""}, "model": "TPVpnapp.fulldirection", "pk": 38}, {"fields": {"province": "C\u00f3rdoba", "direction": "C/ Pintor Palomino 39, 3\u00ba2", "door": "", "numDir": "S/N", "numFlat": null, "location": "C\u00f3rdoba", "postalCode": "14006", "stairs": ""}, "model": "TPVpnapp.fulldirection", "pk": 39}, {"fields": {"province": "C\u00f3rdoba", "direction": "C/ Avellano 15, 3\u00ba 4", "door": "", "numDir": "S/N", "numFlat": null, "location": "C\u00f3rdoba", "postalCode": "14006", "stairs": ""}, "model": "TPVpnapp.fulldirection", "pk": 40}, {"fields": {"province": "C\u00f3rdoba", "direction": "C/ Pintor Palomino 39, 3\u00ba2", "door": "", "numDir": "S/N", "numFlat": null, "location": "C\u00f3rdoba", "postalCode": "14006", "stairs": ""}, "model": "TPVpnapp.fulldirection", "pk": 41}, {"fields": {"province": "C\u00f3rdoba", "direction": "C/ Avellano 15, 3\u00ba 4", "door": "", "numDir": "S/N", "numFlat": null, "location": "C\u00f3rdoba", "postalCode": "14006", "stairs": ""}, "model": "TPVpnapp.fulldirection", "pk": 42}, {"fields": {"province": "C\u00f3rdoba", "direction": "C/ Pintor Palomino 39, 3\u00ba2", "door": "", "numDir": "S/N", "numFlat": null, "location": "C\u00f3rdoba", "postalCode": "14006", "stairs": ""}, "model": "TPVpnapp.fulldirection", "pk": 43}, {"fields": {"province": "a", "direction": "a", "door": "", "numDir": "S/N", "numFlat": null, "location": "a", "postalCode": "1", "stairs": ""}, "model": "TPVpnapp.fulldirection", "pk": 44}, {"fields": {"direction": null, "tel": 1, "name": "Coviran", "kindActivity": "", "date": "2017-01-08", "email": "coviran@coviran.com"}, "model": "TPVpnapp.market", "pk": 1}, {"fields": {"namePro": "Viajante", "tel": 1, "email": "a@a.com", "market": 1}, "model": "TPVpnapp.provider", "pk": 1}, {"fields": {"category": "Libro", "kind": "Unidades", "barCode": "Vacio", "subcategory": "Lectura", "buyPrice": 1.0, "iva": 4, "brand": "Libroteca", "offer": null, "amount": 1.0, "provider": 1, "sellPrice": 1.99, "image": "products/default/product.png", "market": 1, "name": "Producto"}, "model": "TPVpnapp.product", "pk": 1}, {"fields": {"category": "Libro", "kind": "Unidades", "barCode": "Vacio", "subcategory": "Lectura", "buyPrice": 1.0, "iva": 21, "brand": "Marca", "offer": null, "amount": 0.0, "provider": 1, "sellPrice": 2.99, "image": "products/default/product.png", "market": 1, "name": "Nuevo"}, "model": "TPVpnapp.product", "pk": 2}, {"fields": {"category": "Libro", "kind": "Unidades", "barCode": "Vacio", "subcategory": "Lectura", "buyPrice": 0.0, "iva": 21, "brand": "Libroteca", "offer": null, "amount": 2.0, "provider": 1, "sellPrice": 2.96, "image": "products/default/product.png", "market": 1, "name": "Otro"}, "model": "TPVpnapp.product", "pk": 3}, {"fields": {"category": "Libro", "kind": "Unidades", "barCode": "Vacio", "subcategory": "Lectura", "buyPrice": 0.0, "iva": 10, "brand": "Libroteca", "offer": null, "amount": 2.0, "provider": 1, "sellPrice": 2.96, "image": "products/default/product.png", "market": 1, "name": "Otro"}, "model": "TPVpnapp.product", "pk": 4}, {"fields": {"category": "Libro", "kind": "Unidades", "barCode": "Vacio", "subcategory": "Lectura", "buyPrice": 0.0, "iva": 4, "brand": "Marca", "offer": null, "amount": 1.0, "provider": 1, "sellPrice": 2.0, "image": "products/default/product.png", "market": 1, "name": "Otro"}, "model": "TPVpnapp.product", "pk": 5}, {"fields": {"category": "Libro", "kind": "Unidades", "barCode": "Vacio", "subcategory": "Lectura", "buyPrice": 1.0, "iva": 4, "brand": "Libroteca", "offer": null, "amount": 2.0, "provider": 1, "sellPrice": 3.0, "image": "products/default/product.png", "market": 1, "name": "Producto de Coviran"}, "model": "TPVpnapp.product", "pk": 6}, {"fields": {"category": "Cate", "kind": "Unidades", "barCode": "Vacio", "subcategory": "Goria", "buyPrice": 1.0, "iva": 21, "brand": "Marca", "offer": null, "amount": 2.0, "provider": 1, "sellPrice": 3.0, "image": "products/default/product.png", "market": 1, "name": "Prueba Categor\u00eda"}, "model": "TPVpnapp.product", "pk": 7}, {"fields": {"bank_name": "", "owner_name": "", "payment_method": "", "owner_nif": "", "observations": "", "frequency": "", "account_number": "", "owner_surname": "", "date": "2017-01-11", "subscription": null}, "model": "TPVpnapp.bankdata", "pk": 1}, {"fields": {"bank_name": "", "owner_name": "Adam", "payment_method": "Contado", "owner_nif": "", "observations": "", "frequency": "Anual", "account_number": "", "owner_surname": "", "date": "2017-01-11", "subscription": null}, "model": "TPVpnapp.bankdata", "pk": 2}, {"fields": {"bank_name": "", "owner_name": "", "payment_method": "Nuevo m\u00e9todo", "owner_nif": "", "observations": "", "frequency": "Anual", "account_number": "", "owner_surname": "", "date": "2017-01-12", "subscription": null}, "model": "TPVpnapp.bankdata", "pk": 3}, {"fields": {"bank_name": "Cajasur", "owner_name": "Giacomo", "payment_method": "Domiciliado", "owner_nif": "X9886269-H", "observations": "\"\"", "frequency": "Mensual", "account_number": "0237-0186-81-9166557321", "owner_surname": "Giannoccaro", "date": "2017-01-14", "subscription": 15.0}, "model": "TPVpnapp.bankdata", "pk": 4}, {"fields": {"bank_name": "Cajasur", "owner_name": "Giacomo", "payment_method": "Domiciliado", "owner_nif": "X9886269-H", "observations": "\"\"", "frequency": "Mensual", "account_number": "0237-0186-81-9166557321", "owner_surname": "Giannoccaro", "date": "2017-01-14", "subscription": 15.0}, "model": "TPVpnapp.bankdata", "pk": 5}, {"fields": {"bank_name": "Cajasur", "owner_name": "Giacomo", "payment_method": "Domiciliado", "owner_nif": "X9886269-H", "observations": "", "frequency": "Mensual", "account_number": "0237-0186-81-9166557321", "owner_surname": "Giannoccaro", "date": "2017-01-14", "subscription": 15.0}, "model": "TPVpnapp.bankdata", "pk": 6}, {"fields": {"bank_name": "Cajasur", "owner_name": "Giacomo", "payment_method": "Domiciliado", "owner_nif": "X9886269-H", "observations": "", "frequency": "Mensual", "account_number": "0237-0186-81-9166557321", "owner_surname": "Giannoccaro", "date": "2017-01-14", "subscription": 15.0}, "model": "TPVpnapp.bankdata", "pk": 7}, {"fields": {"bank_name": "Cajasur", "owner_name": "Giacomo", "payment_method": "Domiciliado", "owner_nif": "X9886269-H", "observations": "", "frequency": "Mensual", "account_number": "0237-0186-81-9166557321", "owner_surname": "Giannoccaro", "date": "2017-01-14", "subscription": 15.0}, "model": "TPVpnapp.bankdata", "pk": 8}, {"fields": {"bank_name": "Cajasur", "owner_name": "Giacomo", "payment_method": "Domiciliado", "owner_nif": "X9886269-H", "observations": "", "frequency": "Mensual", "account_number": "0237-0186-81-9166557321", "owner_surname": "Giannoccaro", "date": "2017-01-14", "subscription": 15.0}, "model": "TPVpnapp.bankdata", "pk": 9}, {"fields": {"bank_name": "Cajasur", "owner_name": "Giacomo", "payment_method": "Domiciliado", "owner_nif": "X9886269-H", "observations": "", "frequency": "Mensual", "account_number": "0237-0186-81-9166557321", "owner_surname": "Giannoccaro", "date": "2017-01-14", "subscription": 15.0}, "model": "TPVpnapp.bankdata", "pk": 10}, {"fields": {"bank_name": "Cajasur", "owner_name": "Giacomo", "payment_method": "Domiciliado", "owner_nif": "X9886269-H", "observations": "", "frequency": "Mensual", "account_number": "0237-0186-81-9166557321", "owner_surname": "Giannoccaro", "date": "2017-01-14", "subscription": 15.0}, "model": "TPVpnapp.bankdata", "pk": 11}, {"fields": {"bank_name": "Cajasur", "owner_name": "Giacomo", "payment_method": "Domiciliado", "owner_nif": "X9886269-H", "observations": "", "frequency": "Mensual", "account_number": "0237-0186-81-9166557321", "owner_surname": "Giannoccaro", "date": "2017-01-14", "subscription": 15.0}, "model": "TPVpnapp.bankdata", "pk": 12}, {"fields": {"bank_name": "Cajasur", "owner_name": "Giacomo", "payment_method": "Domiciliado", "owner_nif": "X9886269-H", "observations": "", "frequency": "Mensual", "account_number": "0237-0186-81-9166557321", "owner_surname": "Giannoccaro", "date": "2017-01-14", "subscription": 15.0}, "model": "TPVpnapp.bankdata", "pk": 13}, {"fields": {"bank_name": "Triodos", "owner_name": "", "payment_method": "Domiciliado", "owner_nif": "", "observations": "", "frequency": "Trimestral", "account_number": "1491-0001-25-1008384024 ", "owner_surname": "", "date": "2017-01-14", "subscription": 20.0}, "model": "TPVpnapp.bankdata", "pk": 14}, {"fields": {"bank_name": "Cajasur", "owner_name": "Giacomo", "payment_method": "Domiciliado", "owner_nif": "X9886269-H", "observations": "", "frequency": "Mensual", "account_number": "0237-0186-81-9166557321", "owner_surname": "Giannoccaro", "date": "2017-01-14", "subscription": 15.0}, "model": "TPVpnapp.bankdata", "pk": 15}, {"fields": {"bank_name": "Cajasur", "owner_name": "Giacomo", "payment_method": "Domiciliado", "owner_nif": "X9886269-H", "observations": "", "frequency": "Mensual", "account_number": "0237-0186-81-9166557321", "owner_surname": "Giannoccaro", "date": "2017-01-14", "subscription": 15.0}, "model": "TPVpnapp.bankdata", "pk": 16}, {"fields": {"bank_name": "Cajasur", "owner_name": "Giacomo", "payment_method": "Domiciliado", "owner_nif": "X9886269-H", "observations": "", "frequency": "Mensual", "account_number": "0237-0186-81-9166557321", "owner_surname": "Giannoccaro", "date": "2017-01-14", "subscription": 15.0}, "model": "TPVpnapp.bankdata", "pk": 17}, {"fields": {"bank_name": "Cajasur", "owner_name": "Giacomo", "payment_method": "Domiciliado", "owner_nif": "X9886269-H", "observations": "", "frequency": "Mensual", "account_number": "0237-0186-81-9166557321", "owner_surname": "Giannoccaro", "date": "2017-01-14", "subscription": 15.0}, "model": "TPVpnapp.bankdata", "pk": 18}, {"fields": {"bank_name": "Triodos", "owner_name": "", "payment_method": "Domiciliado", "owner_nif": "", "observations": "", "frequency": "Trimestral", "account_number": "1491-0001-25-1008384024 ", "owner_surname": "", "date": "2017-01-14", "subscription": 20.0}, "model": "TPVpnapp.bankdata", "pk": 19}, {"fields": {"bank_name": "Cajasur", "owner_name": "Giacomo", "payment_method": "Domiciliado", "owner_nif": "X9886269-H", "observations": "", "frequency": "Mensual", "account_number": "0237-0186-81-9166557321", "owner_surname": "Giannoccaro", "date": "2017-01-14", "subscription": 15.0}, "model": "TPVpnapp.bankdata", "pk": 20}, {"fields": {"bank_name": "Cajasur", "owner_name": "Giacomo", "payment_method": "Domiciliado", "owner_nif": "X9886269-H", "observations": "", "frequency": "Mensual", "account_number": "0237-0186-81-9166557321", "owner_surname": "Giannoccaro", "date": "2017-01-14", "subscription": 15.0}, "model": "TPVpnapp.bankdata", "pk": 21}, {"fields": {"bank_name": "Cajasur", "owner_name": "Giacomo", "payment_method": "Domiciliado", "owner_nif": "X9886269-H", "observations": "", "frequency": "Mensual", "account_number": "0237-0186-81-9166557321", "owner_surname": "Giannoccaro", "date": "2017-01-14", "subscription": 15.0}, "model": "TPVpnapp.bankdata", "pk": 22}, {"fields": {"bank_name": "Triodos", "owner_name": "", "payment_method": "Domiciliado", "owner_nif": "", "observations": "", "frequency": "Trimestral", "account_number": "1491-0001-25-1008384024 ", "owner_surname": "", "date": "2017-01-14", "subscription": 20.0}, "model": "TPVpnapp.bankdata", "pk": 23}, {"fields": {"bank_name": "Cajasur", "owner_name": "Giacomo", "payment_method": "Domiciliado", "owner_nif": "X9886269-H", "observations": "", "frequency": "Mensual", "account_number": "0237-0186-81-9166557321", "owner_surname": "Giannoccaro", "date": "2017-01-14", "subscription": 15.0}, "model": "TPVpnapp.bankdata", "pk": 24}, {"fields": {"bank_name": "Triodos", "owner_name": "", "payment_method": "Domiciliado", "owner_nif": "", "observations": "", "frequency": "Trimestral", "account_number": "1491-0001-25-1008384024 ", "owner_surname": "", "date": "2017-01-14", "subscription": 20.0}, "model": "TPVpnapp.bankdata", "pk": 25}, {"fields": {"bank_name": "", "owner_name": "", "payment_method": "", "owner_nif": "", "observations": "", "frequency": "", "account_number": "", "owner_surname": "", "date": "2017-01-14", "subscription": null}, "model": "TPVpnapp.bankdata", "pk": 26}, {"fields": {"bank_name": "Triodos", "owner_name": "", "payment_method": "Domiciliado", "owner_nif": "", "observations": "", "frequency": "Trimestral", "account_number": "1491-0001-25-1008384024 ", "owner_surname": "", "date": "2017-01-14", "subscription": 20.0}, "model": "TPVpnapp.bankdata", "pk": 27}, {"fields": {"bank_name": "Cajasur", "owner_name": "Giacomo", "payment_method": "Domiciliado", "owner_nif": "X9886269-H", "observations": "", "frequency": "Mensual", "account_number": "0237-0186-81-9166557321", "owner_surname": "Giannoccaro", "date": "2017-01-14", "subscription": 15.0}, "model": "TPVpnapp.bankdata", "pk": 28}, {"fields": {"bank_name": "Triodos", "owner_name": "", "payment_method": "Domiciliado", "owner_nif": "", "observations": "", "frequency": "Trimestral", "account_number": "1491-0001-25-1008384024 ", "owner_surname": "", "date": "2017-01-14", "subscription": 20.0}, "model": "TPVpnapp.bankdata", "pk": 29}, {"fields": {"bank_name": "Cajasur", "owner_name": "Giacomo", "payment_method": "Domiciliado", "owner_nif": "X9886269-H", "observations": "", "frequency": "Mensual", "account_number": "0237-0186-81-9166557321", "owner_surname": "Giannoccaro", "date": "2017-01-14", "subscription": 15.0}, "model": "TPVpnapp.bankdata", "pk": 30}, {"fields": {"bank_name": "Triodos", "owner_name": "", "payment_method": "Domiciliado", "owner_nif": "", "observations": "", "frequency": "Trimestral", "account_number": "1491-0001-25-1008384024 ", "owner_surname": "", "date": "2017-01-14", "subscription": 20.0}, "model": "TPVpnapp.bankdata", "pk": 31}, {"fields": {"bank_name": "Cajasur", "owner_name": "Giacomo", "payment_method": "Domiciliado", "owner_nif": "X9886269-H", "observations": "", "frequency": "Mensual", "account_number": "0237-0186-81-9166557321", "owner_surname": "Giannoccaro", "date": "2017-01-14", "subscription": 15.0}, "model": "TPVpnapp.bankdata", "pk": 32}, {"fields": {"bank_name": "Triodos", "owner_name": "", "payment_method": "Domiciliado", "owner_nif": "", "observations": "", "frequency": "Trimestral", "account_number": "1491-0001-25-1008384024 ", "owner_surname": "", "date": "2017-01-14", "subscription": 20.0}, "model": "TPVpnapp.bankdata", "pk": 33}, {"fields": {"bank_name": "Cajasur", "owner_name": "Giacomo", "payment_method": "Domiciliado", "owner_nif": "X9886269-H", "observations": "", "frequency": "Mensual", "account_number": "0237-0186-81-9166557321", "owner_surname": "Giannoccaro", "date": "2017-01-14", "subscription": 15.0}, "model": "TPVpnapp.bankdata", "pk": 34}, {"fields": {"bank_name": "Triodos", "owner_name": "", "payment_method": "Domiciliado", "owner_nif": "", "observations": "", "frequency": "Trimestral", "account_number": "1491-0001-25-1008384024 ", "owner_surname": "", "date": "2017-01-14", "subscription": 20.0}, "model": "TPVpnapp.bankdata", "pk": 35}, {"fields": {"bank_name": "", "owner_name": "", "payment_method": "", "owner_nif": "", "observations": "", "frequency": "", "account_number": "", "owner_surname": "", "date": "2017-01-17", "subscription": null}, "model": "TPVpnapp.bankdata", "pk": 36}, {"fields": {"tel2": 620965568, "tel": 953502433, "name": "Adam", "image": "clients/profile/Screenshot_at_2016-08-22_164933_00iFkXz.png", "expire_date": null, "dni": "53598404D", "wallet": 0.0, "bank": 3, "home": 8, "date": "2017-01-10", "surname": "Mora Tortajada", "email": "adam.mora.tortajada@gmail.com", "market": 1}, "model": "TPVpnapp.client", "pk": 1}, {"fields": {"tel2": 620965568, "tel": 620965568, "name": "Algo", "image": "clients/default/img.jpg", "expire_date": null, "dni": "45454545D", "wallet": 2.0, "bank": 2, "home": 7, "date": "2017-01-11", "surname": "Pasa", "email": "alejo@alejo.com", "market": 1}, "model": "TPVpnapp.client", "pk": 2}, {"fields": {"tel2": 680205598, "tel": null, "name": "Tamara", "image": "clients/default/img.jpg", "expire_date": null, "dni": "30971488Y", "wallet": 0.0, "bank": 34, "home": 42, "date": "2017-01-14", "surname": "Tienda Fern\u00e1ndez", "email": "tamaracordoba@hotmail.com", "market": 1}, "model": "TPVpnapp.client", "pk": 5}, {"fields": {"tel2": 699070028, "tel": null, "name": "M\u00aa Teresa", "image": "clients/default/img.jpg", "expire_date": null, "dni": "44351297Y", "wallet": 4.14, "bank": 35, "home": 43, "date": "2017-01-14", "surname": "Hern\u00e1ndez Merino", "email": "area.cooperacion@uco.es", "market": 1}, "model": "TPVpnapp.client", "pk": 6}, {"fields": {"tel2": null, "tel": null, "name": "a", "image": "clients/default/img.jpg", "expire_date": null, "dni": "12345612A", "wallet": 1.0, "bank": 36, "home": 44, "date": "2017-01-17", "surname": "", "email": null, "market": 1}, "model": "TPVpnapp.client", "pk": 7}, {"fields": {"totAmount": 3.98, "sale_code": "Coviran#1", "benefice": 1.98, "devolution": 0.02, "usedWallet": 4.0, "seller": 1, "date": "2017-01-07T23:45:42.605Z", "done": true, "buyer": 1, "recivedAmount": 0.0, "market": 1}, "model": "TPVpnapp.sale", "pk": 1}, {"fields": {"totAmount": 1.99, "sale_code": "Coviran#2", "benefice": 0.99, "devolution": 0.01, "usedWallet": 0.0, "seller": 3, "date": "2017-01-08T13:36:41.540Z", "done": true, "buyer": null, "recivedAmount": 2.0, "market": 1}, "model": "TPVpnapp.sale", "pk": 2}, {"fields": {"totAmount": 101.99, "sale_code": "Coviran#3", "benefice": 0.99, "devolution": 8.01, "usedWallet": 10.0, "seller": 3, "date": "2017-01-08T17:54:35.739Z", "done": true, "buyer": 1, "recivedAmount": 100.0, "market": 1}, "model": "TPVpnapp.sale", "pk": 3}, {"fields": {"totAmount": 1.99, "sale_code": "Coviran#4", "benefice": 0.99, "devolution": 0.01, "usedWallet": 0.0, "seller": 3, "date": "2017-01-08T19:25:48.230Z", "done": true, "buyer": null, "recivedAmount": 2.0, "market": 1}, "model": "TPVpnapp.sale", "pk": 4}, {"fields": {"totAmount": 1.99, "sale_code": "Coviran#5", "benefice": 0.99, "devolution": 0.01, "usedWallet": 0.0, "seller": 3, "date": "2017-01-08T19:25:56.974Z", "done": true, "buyer": null, "recivedAmount": 2.0, "market": 1}, "model": "TPVpnapp.sale", "pk": 5}, {"fields": {"totAmount": 1.99, "sale_code": "Coviran#6", "benefice": 0.99, "devolution": 0.01, "usedWallet": 0.0, "seller": 3, "date": "2017-01-08T19:26:08.719Z", "done": true, "buyer": null, "recivedAmount": 2.0, "market": 1}, "model": "TPVpnapp.sale", "pk": 6}, {"fields": {"totAmount": 2.99, "sale_code": "Coviran#7", "benefice": 1.9900000000000002, "devolution": 0.01, "usedWallet": 0.0, "seller": 3, "date": "2017-01-09T19:14:08.431Z", "done": true, "buyer": 1, "recivedAmount": 3.0, "market": 1}, "model": "TPVpnapp.sale", "pk": 7}, {"fields": {"totAmount": 0.0, "sale_code": null, "benefice": 0.0, "devolution": 0.0, "usedWallet": 0.0, "seller": 1, "date": "2017-01-15T11:38:04.191Z", "done": false, "buyer": null, "recivedAmount": 0.0, "market": 1}, "model": "TPVpnapp.sale", "pk": 8}, {"fields": {"totAmount": 0.0, "sale_code": null, "benefice": 0.0, "devolution": 0.0, "usedWallet": 0.0, "seller": 1, "date": "2017-01-15T11:38:27.656Z", "done": false, "buyer": null, "recivedAmount": 0.0, "market": 1}, "model": "TPVpnapp.sale", "pk": 9}, {"fields": {"totAmount": 0.0, "sale_code": null, "benefice": 0.0, "devolution": 0.0, "usedWallet": 0.0, "seller": 1, "date": "2017-01-15T11:38:53.004Z", "done": false, "buyer": null, "recivedAmount": 0.0, "market": 1}, "model": "TPVpnapp.sale", "pk": 10}, {"fields": {"totAmount": 0.0, "sale_code": null, "benefice": 0.0, "devolution": 0.0, "usedWallet": 0.0, "seller": 1, "date": "2017-01-15T11:39:25.394Z", "done": false, "buyer": null, "recivedAmount": 0.0, "market": 1}, "model": "TPVpnapp.sale", "pk": 11}, {"fields": {"totAmount": 0.0, "sale_code": null, "benefice": 0.0, "devolution": 0.0, "usedWallet": 0.0, "seller": 1, "date": "2017-01-15T11:40:08.222Z", "done": false, "buyer": null, "recivedAmount": 0.0, "market": 1}, "model": "TPVpnapp.sale", "pk": 12}, {"fields": {"totAmount": 0.0, "sale_code": null, "benefice": 0.0, "devolution": 0.0, "usedWallet": 0.0, "seller": 1, "date": "2017-01-15T11:41:11.711Z", "done": false, "buyer": null, "recivedAmount": 0.0, "market": 1}, "model": "TPVpnapp.sale", "pk": 13}, {"fields": {"totAmount": 0.0, "sale_code": null, "benefice": 0.0, "devolution": 0.0, "usedWallet": 0.0, "seller": 1, "date": "2017-01-15T11:47:12.484Z", "done": false, "buyer": null, "recivedAmount": 0.0, "market": 1}, "model": "TPVpnapp.sale", "pk": 14}, {"fields": {"totAmount": 0.0, "sale_code": null, "benefice": 0.0, "devolution": 0.0, "usedWallet": 0.0, "seller": 1, "date": "2017-01-15T11:49:27.490Z", "done": false, "buyer": null, "recivedAmount": 0.0, "market": 1}, "model": "TPVpnapp.sale", "pk": 15}, {"fields": {"totAmount": 0.0, "sale_code": null, "benefice": 0.0, "devolution": 0.0, "usedWallet": 0.0, "seller": 1, "date": "2017-01-15T11:50:27.509Z", "done": false, "buyer": null, "recivedAmount": 0.0, "market": 1}, "model": "TPVpnapp.sale", "pk": 16}, {"fields": {"totAmount": 0.0, "sale_code": "Coviran#None", "benefice": 0.0, "devolution": 0.0, "usedWallet": 0.0, "seller": 1, "date": "2017-01-15T11:51:30.974Z", "done": false, "buyer": null, "recivedAmount": 0.0, "market": 1}, "model": "TPVpnapp.sale", "pk": 17}, {"fields": {"totAmount": 0.0, "sale_code": "Coviran#18", "benefice": 0.0, "devolution": 0.0, "usedWallet": 0.0, "seller": 1, "date": "2017-01-15T11:52:33.879Z", "done": false, "buyer": null, "recivedAmount": 0.0, "market": 1}, "model": "TPVpnapp.sale", "pk": 18}, {"fields": {"totAmount": 0.0, "sale_code": "Coviran#19", "benefice": 0.0, "devolution": 0.0, "usedWallet": 0.0, "seller": 1, "date": "2017-01-15T11:55:21.354Z", "done": false, "buyer": null, "recivedAmount": 0.0, "market": 1}, "model": "TPVpnapp.sale", "pk": 19}, {"fields": {"totAmount": 0.0, "sale_code": "Coviran#20", "benefice": 0.0, "devolution": 0.0, "usedWallet": 0.0, "seller": 1, "date": "2017-01-15T11:55:40.173Z", "done": false, "buyer": null, "recivedAmount": 0.0, "market": 1}, "model": "TPVpnapp.sale", "pk": 20}, {"fields": {"totAmount": 0.0, "sale_code": "Coviran#21", "benefice": 0.0, "devolution": 0.0, "usedWallet": 0.0, "seller": 1, "date": "2017-01-15T11:55:55.020Z", "done": false, "buyer": null, "recivedAmount": 0.0, "market": 1}, "model": "TPVpnapp.sale", "pk": 21}, {"fields": {"totAmount": 0.0, "sale_code": "Coviran#22", "benefice": 0.0, "devolution": 0.0, "usedWallet": 0.0, "seller": 1, "date": "2017-01-15T11:56:08.832Z", "done": false, "buyer": null, "recivedAmount": 0.0, "market": 1}, "model": "TPVpnapp.sale", "pk": 22}, {"fields": {"totAmount": 0.0, "sale_code": "Coviran#23", "benefice": 0.0, "devolution": 0.0, "usedWallet": 0.0, "seller": 1, "date": "2017-01-15T11:56:20.998Z", "done": false, "buyer": null, "recivedAmount": 0.0, "market": 1}, "model": "TPVpnapp.sale", "pk": 23}, {"fields": {"totAmount": 0.0, "sale_code": "Coviran#24", "benefice": 0.0, "devolution": 0.0, "usedWallet": 0.0, "seller": 1, "date": "2017-01-15T11:57:06.572Z", "done": false, "buyer": null, "recivedAmount": 0.0, "market": 1}, "model": "TPVpnapp.sale", "pk": 24}, {"fields": {"totAmount": 1.99, "sale_code": "Coviran#25", "benefice": 0.99, "devolution": 0.01, "usedWallet": 0.0, "seller": 1, "date": "2017-01-15T12:11:51.765Z", "done": true, "buyer": null, "recivedAmount": 2.0, "market": 1}, "model": "TPVpnapp.sale", "pk": 25}, {"fields": {"totAmount": 0.0, "sale_code": "Coviran#26", "benefice": 0.0, "devolution": 0.0, "usedWallet": 0.0, "seller": 1, "date": "2017-01-15T12:11:52.067Z", "done": false, "buyer": null, "recivedAmount": 0.0, "market": 1}, "model": "TPVpnapp.sale", "pk": 26}, {"fields": {"totAmount": 1.99, "sale_code": "Coviran#27", "benefice": 0.99, "devolution": 0.01, "usedWallet": 0.0, "seller": 1, "date": "2017-01-15T12:13:59.568Z", "done": true, "buyer": null, "recivedAmount": 2.0, "market": 1}, "model": "TPVpnapp.sale", "pk": 27}, {"fields": {"totAmount": 1.99, "sale_code": "Coviran#28", "benefice": 0.99, "devolution": 0.01, "usedWallet": 0.0, "seller": 1, "date": "2017-01-15T12:16:26.645Z", "done": true, "buyer": null, "recivedAmount": 2.0, "market": 1}, "model": "TPVpnapp.sale", "pk": 28}, {"fields": {"totAmount": 0.0, "sale_code": "Coviran#29", "benefice": 0.0, "devolution": 0.0, "usedWallet": 0.0, "seller": 1, "date": "2017-01-15T12:16:26.927Z", "done": false, "buyer": null, "recivedAmount": 0.0, "market": 1}, "model": "TPVpnapp.sale", "pk": 29}, {"fields": {"totAmount": 1.99, "sale_code": "Coviran#30", "benefice": 0.99, "devolution": 0.01, "usedWallet": 0.0, "seller": 1, "date": "2017-01-15T12:17:35.414Z", "done": true, "buyer": null, "recivedAmount": 2.0, "market": 1}, "model": "TPVpnapp.sale", "pk": 30}, {"fields": {"totAmount": 2.99, "sale_code": "Coviran#31", "benefice": 1.9900000000000002, "devolution": 0.01, "usedWallet": 0.0, "seller": 1, "date": "2017-01-15T12:18:57.050Z", "done": true, "buyer": null, "recivedAmount": 3.0, "market": 1}, "model": "TPVpnapp.sale", "pk": 31}, {"fields": {"totAmount": 0.0, "sale_code": "Coviran#32", "benefice": 0.0, "devolution": 0.0, "usedWallet": 0.0, "seller": 1, "date": "2017-01-15T12:18:57.319Z", "done": false, "buyer": null, "recivedAmount": 0.0, "market": 1}, "model": "TPVpnapp.sale", "pk": 32}, {"fields": {"totAmount": 0.0, "sale_code": "Coviran#33", "benefice": 0.0, "devolution": 0.0, "usedWallet": 0.0, "seller": 1, "date": "2017-01-15T13:00:26.363Z", "done": false, "buyer": null, "recivedAmount": 0.0, "market": 1}, "model": "TPVpnapp.sale", "pk": 33}, {"fields": {"totAmount": 0.0, "sale_code": "Coviran#34", "benefice": 0.0, "devolution": 0.0, "usedWallet": 0.0, "seller": 1, "date": "2017-01-15T13:00:32.868Z", "done": false, "buyer": null, "recivedAmount": 0.0, "market": 1}, "model": "TPVpnapp.sale", "pk": 34}, {"fields": {"totAmount": 0.0, "sale_code": "Coviran#35", "benefice": 0.0, "devolution": 0.0, "usedWallet": 0.0, "seller": 1, "date": "2017-01-17T16:34:31.455Z", "done": false, "buyer": null, "recivedAmount": 0.0, "market": 1}, "model": "TPVpnapp.sale", "pk": 35}, {"fields": {"totAmount": 0.0, "sale_code": "Coviran#36", "benefice": 0.0, "devolution": 0.0, "usedWallet": 0.0, "seller": 1, "date": "2017-01-17T16:56:17.930Z", "done": false, "buyer": null, "recivedAmount": 0.0, "market": 1}, "model": "TPVpnapp.sale", "pk": 36}, {"fields": {"totAmount": 0.0, "sale_code": "Coviran#37", "benefice": 0.0, "devolution": 0.0, "usedWallet": 0.0, "seller": 1, "date": "2017-01-17T17:37:07.775Z", "done": false, "buyer": null, "recivedAmount": 0.0, "market": 1}, "model": "TPVpnapp.sale", "pk": 37}, {"fields": {"totAmount": 0.0, "sale_code": "Coviran#38", "benefice": 0.0, "devolution": 0.0, "usedWallet": 0.0, "seller": 1, "date": "2017-01-17T17:37:40.513Z", "done": false, "buyer": null, "recivedAmount": 0.0, "market": 1}, "model": "TPVpnapp.sale", "pk": 38}, {"fields": {"totAmount": 0.0, "sale_code": "Coviran#39", "benefice": 0.0, "devolution": 0.0, "usedWallet": 0.0, "seller": 1, "date": "2017-01-17T19:47:08.569Z", "done": false, "buyer": null, "recivedAmount": 0.0, "market": 1}, "model": "TPVpnapp.sale", "pk": 39}, {"fields": {"totAmount": 0.0, "sale_code": "Coviran#40", "benefice": 0.0, "devolution": 0.0, "usedWallet": 0.0, "seller": 1, "date": "2017-01-17T19:47:16.909Z", "done": false, "buyer": null, "recivedAmount": 0.0, "market": 1}, "model": "TPVpnapp.sale", "pk": 40}, {"fields": {"totAmount": 0.0, "sale_code": "Coviran#41", "benefice": 0.0, "devolution": 0.0, "usedWallet": 0.0, "seller": 1, "date": "2017-01-17T19:50:44.385Z", "done": false, "buyer": null, "recivedAmount": 0.0, "market": 1}, "model": "TPVpnapp.sale", "pk": 41}, {"fields": {"totAmount": 0.0, "sale_code": "Coviran#42", "benefice": 0.0, "devolution": 0.0, "usedWallet": 0.0, "seller": 1, "date": "2017-01-17T19:53:59.419Z", "done": false, "buyer": null, "recivedAmount": 0.0, "market": 1}, "model": "TPVpnapp.sale", "pk": 42}, {"fields": {"totAmount": 0.0, "sale_code": "Coviran#43", "benefice": 0.0, "devolution": 0.0, "usedWallet": 0.0, "seller": 1, "date": "2017-01-17T19:54:08.491Z", "done": false, "buyer": null, "recivedAmount": 0.0, "market": 1}, "model": "TPVpnapp.sale", "pk": 43}, {"fields": {"totAmount": 0.0, "sale_code": "Coviran#44", "benefice": 0.0, "devolution": 0.0, "usedWallet": 0.0, "seller": 1, "date": "2017-01-17T19:55:11.711Z", "done": false, "buyer": null, "recivedAmount": 0.0, "market": 1}, "model": "TPVpnapp.sale", "pk": 44}, {"fields": {"totAmount": 0.0, "sale_code": "Coviran#45", "benefice": 0.0, "devolution": 0.0, "usedWallet": 0.0, "seller": 1, "date": "2017-01-17T19:59:25.540Z", "done": false, "buyer": null, "recivedAmount": 0.0, "market": 1}, "model": "TPVpnapp.sale", "pk": 45}, {"fields": {"totAmount": 0.0, "sale_code": "Coviran#46", "benefice": 0.0, "devolution": 0.0, "usedWallet": 0.0, "seller": 1, "date": "2017-01-17T19:59:31.795Z", "done": false, "buyer": null, "recivedAmount": 0.0, "market": 1}, "model": "TPVpnapp.sale", "pk": 46}, {"fields": {"totAmount": 0.0, "sale_code": "Coviran#47", "benefice": 0.0, "devolution": 0.0, "usedWallet": 0.0, "seller": 1, "date": "2017-01-17T19:59:41.679Z", "done": false, "buyer": null, "recivedAmount": 0.0, "market": 1}, "model": "TPVpnapp.sale", "pk": 47}, {"fields": {"totAmount": 0.0, "sale_code": "Coviran#48", "benefice": 0.0, "devolution": 0.0, "usedWallet": 0.0, "seller": 1, "date": "2017-01-17T19:59:53.145Z", "done": false, "buyer": null, "recivedAmount": 0.0, "market": 1}, "model": "TPVpnapp.sale", "pk": 48}, {"fields": {"totAmount": 0.0, "sale_code": "Coviran#49", "benefice": 0.0, "devolution": 0.0, "usedWallet": 0.0, "seller": 1, "date": "2017-01-17T20:00:23.488Z", "done": false, "buyer": null, "recivedAmount": 0.0, "market": 1}, "model": "TPVpnapp.sale", "pk": 49}, {"fields": {"totAmount": 0.0, "sale_code": "Coviran#50", "benefice": 0.0, "devolution": 0.0, "usedWallet": 0.0, "seller": 1, "date": "2017-01-17T20:00:46.644Z", "done": false, "buyer": null, "recivedAmount": 0.0, "market": 1}, "model": "TPVpnapp.sale", "pk": 50}, {"fields": {"totAmount": 0.0, "sale_code": "Coviran#51", "benefice": 0.0, "devolution": 0.0, "usedWallet": 0.0, "seller": 1, "date": "2017-01-17T20:00:54.308Z", "done": false, "buyer": null, "recivedAmount": 0.0, "market": 1}, "model": "TPVpnapp.sale", "pk": 51}, {"fields": {"totAmount": 0.0, "sale_code": "Coviran#52", "benefice": 0.0, "devolution": 0.0, "usedWallet": 0.0, "seller": 1, "date": "2017-01-17T20:03:52.987Z", "done": false, "buyer": null, "recivedAmount": 0.0, "market": 1}, "model": "TPVpnapp.sale", "pk": 52}, {"fields": {"totAmount": 0.0, "sale_code": "Coviran#53", "benefice": 0.0, "devolution": 0.0, "usedWallet": 0.0, "seller": 1, "date": "2017-01-17T20:04:14.787Z", "done": false, "buyer": null, "recivedAmount": 0.0, "market": 1}, "model": "TPVpnapp.sale", "pk": 53}, {"fields": {"totAmount": 0.0, "sale_code": "Coviran#54", "benefice": 0.0, "devolution": 0.0, "usedWallet": 0.0, "seller": 1, "date": "2017-01-17T20:04:22.760Z", "done": false, "buyer": null, "recivedAmount": 0.0, "market": 1}, "model": "TPVpnapp.sale", "pk": 54}, {"fields": {"totAmount": 0.0, "sale_code": "Coviran#55", "benefice": 0.0, "devolution": 0.0, "usedWallet": 0.0, "seller": 1, "date": "2017-01-17T20:04:41.831Z", "done": false, "buyer": null, "recivedAmount": 0.0, "market": 1}, "model": "TPVpnapp.sale", "pk": 55}, {"fields": {"totAmount": 0.0, "sale_code": "Coviran#56", "benefice": 0.0, "devolution": 0.0, "usedWallet": 0.0, "seller": 1, "date": "2017-01-17T20:05:16.124Z", "done": false, "buyer": null, "recivedAmount": 0.0, "market": 1}, "model": "TPVpnapp.sale", "pk": 56}, {"fields": {"totAmount": 0.0, "sale_code": "Coviran#57", "benefice": 0.0, "devolution": 0.0, "usedWallet": 0.0, "seller": 1, "date": "2017-01-17T20:05:38.490Z", "done": false, "buyer": null, "recivedAmount": 0.0, "market": 1}, "model": "TPVpnapp.sale", "pk": 57}, {"fields": {"totAmount": 0.0, "sale_code": "Coviran#58", "benefice": 0.0, "devolution": 0.0, "usedWallet": 0.0, "seller": 1, "date": "2017-01-17T20:07:05.977Z", "done": false, "buyer": null, "recivedAmount": 0.0, "market": 1}, "model": "TPVpnapp.sale", "pk": 58}, {"fields": {"totAmount": 0.0, "sale_code": "Coviran#59", "benefice": 0.0, "devolution": 0.0, "usedWallet": 0.0, "seller": 1, "date": "2017-01-17T20:08:21.673Z", "done": false, "buyer": null, "recivedAmount": 0.0, "market": 1}, "model": "TPVpnapp.sale", "pk": 59}, {"fields": {"totAmount": 0.0, "sale_code": "Coviran#60", "benefice": 0.0, "devolution": 0.0, "usedWallet": 0.0, "seller": 1, "date": "2017-01-17T20:08:42.216Z", "done": false, "buyer": null, "recivedAmount": 0.0, "market": 1}, "model": "TPVpnapp.sale", "pk": 60}, {"fields": {"totAmount": 0.0, "sale_code": "Coviran#61", "benefice": 0.0, "devolution": 0.0, "usedWallet": 0.0, "seller": 1, "date": "2017-01-17T20:08:53.581Z", "done": false, "buyer": null, "recivedAmount": 0.0, "market": 1}, "model": "TPVpnapp.sale", "pk": 61}, {"fields": {"totAmount": 0.0, "sale_code": "Coviran#62", "benefice": 0.0, "devolution": 0.0, "usedWallet": 0.0, "seller": 1, "date": "2017-01-17T20:08:56.788Z", "done": false, "buyer": null, "recivedAmount": 0.0, "market": 1}, "model": "TPVpnapp.sale", "pk": 62}, {"fields": {"totAmount": 0.0, "sale_code": "Coviran#63", "benefice": 0.0, "devolution": 0.0, "usedWallet": 0.0, "seller": 1, "date": "2017-01-17T20:09:32.545Z", "done": false, "buyer": null, "recivedAmount": 0.0, "market": 1}, "model": "TPVpnapp.sale", "pk": 63}, {"fields": {"totAmount": 0.0, "sale_code": "Coviran#64", "benefice": 0.0, "devolution": 0.0, "usedWallet": 0.0, "seller": 1, "date": "2017-01-17T20:09:45.557Z", "done": false, "buyer": null, "recivedAmount": 0.0, "market": 1}, "model": "TPVpnapp.sale", "pk": 64}, {"fields": {"totAmount": 0.0, "sale_code": "Coviran#65", "benefice": 0.0, "devolution": 0.0, "usedWallet": 0.0, "seller": 1, "date": "2017-01-17T20:09:56.266Z", "done": false, "buyer": null, "recivedAmount": 0.0, "market": 1}, "model": "TPVpnapp.sale", "pk": 65}, {"fields": {"totAmount": 0.0, "sale_code": "Coviran#66", "benefice": 0.0, "devolution": 0.0, "usedWallet": 0.0, "seller": 1, "date": "2017-01-17T20:10:51.808Z", "done": false, "buyer": null, "recivedAmount": 0.0, "market": 1}, "model": "TPVpnapp.sale", "pk": 66}, {"fields": {"totAmount": 0.0, "sale_code": "Coviran#67", "benefice": 0.0, "devolution": 0.0, "usedWallet": 0.0, "seller": 1, "date": "2017-01-17T20:11:14.886Z", "done": false, "buyer": null, "recivedAmount": 0.0, "market": 1}, "model": "TPVpnapp.sale", "pk": 67}, {"fields": {"totAmount": 0.0, "sale_code": "Coviran#68", "benefice": 0.0, "devolution": 0.0, "usedWallet": 0.0, "seller": 1, "date": "2017-01-17T20:11:30.526Z", "done": false, "buyer": null, "recivedAmount": 0.0, "market": 1}, "model": "TPVpnapp.sale", "pk": 68}, {"fields": {"totAmount": 0.0, "sale_code": "Coviran#69", "benefice": 0.0, "devolution": 0.0, "usedWallet": 0.0, "seller": 1, "date": "2017-01-17T20:11:51.816Z", "done": false, "buyer": null, "recivedAmount": 0.0, "market": 1}, "model": "TPVpnapp.sale", "pk": 69}, {"fields": {"totAmount": 0.0, "sale_code": "Coviran#70", "benefice": 0.0, "devolution": 0.0, "usedWallet": 0.0, "seller": 1, "date": "2017-01-17T20:12:35.667Z", "done": false, "buyer": null, "recivedAmount": 0.0, "market": 1}, "model": "TPVpnapp.sale", "pk": 70}, {"fields": {"totAmount": 0.0, "sale_code": "Coviran#71", "benefice": 0.0, "devolution": 0.0, "usedWallet": 0.0, "seller": 1, "date": "2017-01-17T20:14:23.813Z", "done": false, "buyer": null, "recivedAmount": 0.0, "market": 1}, "model": "TPVpnapp.sale", "pk": 71}, {"fields": {"totAmount": 0.0, "sale_code": "Coviran#72", "benefice": 0.0, "devolution": 0.0, "usedWallet": 0.0, "seller": 1, "date": "2017-01-17T20:17:07.642Z", "done": false, "buyer": null, "recivedAmount": 0.0, "market": 1}, "model": "TPVpnapp.sale", "pk": 72}, {"fields": {"totAmount": 0.0, "sale_code": "Coviran#73", "benefice": 0.0, "devolution": 0.0, "usedWallet": 0.0, "seller": 1, "date": "2017-01-17T20:19:09.302Z", "done": false, "buyer": null, "recivedAmount": 0.0, "market": 1}, "model": "TPVpnapp.sale", "pk": 73}, {"fields": {"totAmount": 0.0, "sale_code": "Coviran#74", "benefice": 0.0, "devolution": 0.0, "usedWallet": 0.0, "seller": 1, "date": "2017-01-17T20:19:26.352Z", "done": false, "buyer": null, "recivedAmount": 0.0, "market": 1}, "model": "TPVpnapp.sale", "pk": 74}, {"fields": {"totAmount": 0.0, "sale_code": "Coviran#75", "benefice": 0.0, "devolution": 0.0, "usedWallet": 0.0, "seller": 1, "date": "2017-01-17T20:19:51.468Z", "done": false, "buyer": null, "recivedAmount": 0.0, "market": 1}, "model": "TPVpnapp.sale", "pk": 75}, {"fields": {"totAmount": 0.0, "sale_code": "Coviran#76", "benefice": 0.0, "devolution": 0.0, "usedWallet": 0.0, "seller": 1, "date": "2017-01-17T20:20:06.568Z", "done": false, "buyer": null, "recivedAmount": 0.0, "market": 1}, "model": "TPVpnapp.sale", "pk": 76}, {"fields": {"totAmount": 0.0, "sale_code": "Coviran#77", "benefice": 0.0, "devolution": 0.0, "usedWallet": 0.0, "seller": 1, "date": "2017-01-17T20:20:12.506Z", "done": false, "buyer": null, "recivedAmount": 0.0, "market": 1}, "model": "TPVpnapp.sale", "pk": 77}, {"fields": {"totAmount": 0.0, "sale_code": "Coviran#78", "benefice": 0.0, "devolution": 0.0, "usedWallet": 0.0, "seller": 1, "date": "2017-01-17T20:30:37.677Z", "done": false, "buyer": null, "recivedAmount": 0.0, "market": 1}, "model": "TPVpnapp.sale", "pk": 78}, {"fields": {"totAmount": 0.0, "sale_code": "Coviran#79", "benefice": 0.0, "devolution": 0.0, "usedWallet": 0.0, "seller": 1, "date": "2017-01-17T20:30:42.306Z", "done": false, "buyer": null, "recivedAmount": 0.0, "market": 1}, "model": "TPVpnapp.sale", "pk": 79}, {"fields": {"totAmount": 0.0, "sale_code": "Coviran#80", "benefice": 0.0, "devolution": 0.0, "usedWallet": 0.0, "seller": 1, "date": "2017-01-17T20:31:18.718Z", "done": false, "buyer": null, "recivedAmount": 0.0, "market": 1}, "model": "TPVpnapp.sale", "pk": 80}, {"fields": {"totAmount": 0.0, "sale_code": "Coviran#81", "benefice": 0.0, "devolution": 0.0, "usedWallet": 0.0, "seller": 1, "date": "2017-01-17T20:32:44.538Z", "done": false, "buyer": null, "recivedAmount": 0.0, "market": 1}, "model": "TPVpnapp.sale", "pk": 81}, {"fields": {"totAmount": 0.0, "sale_code": "Coviran#82", "benefice": 0.0, "devolution": 0.0, "usedWallet": 0.0, "seller": 1, "date": "2017-01-17T20:32:53.499Z", "done": false, "buyer": null, "recivedAmount": 0.0, "market": 1}, "model": "TPVpnapp.sale", "pk": 82}, {"fields": {"totAmount": 0.0, "sale_code": "Coviran#83", "benefice": 0.0, "devolution": 0.0, "usedWallet": 0.0, "seller": 1, "date": "2017-01-17T20:36:22.677Z", "done": false, "buyer": null, "recivedAmount": 0.0, "market": 1}, "model": "TPVpnapp.sale", "pk": 83}, {"fields": {"totAmount": 0.0, "sale_code": "Coviran#84", "benefice": 0.0, "devolution": 0.0, "usedWallet": 0.0, "seller": 1, "date": "2017-01-17T20:37:10.139Z", "done": false, "buyer": null, "recivedAmount": 0.0, "market": 1}, "model": "TPVpnapp.sale", "pk": 84}, {"fields": {"totAmount": 0.0, "sale_code": "Coviran#85", "benefice": 0.0, "devolution": 0.0, "usedWallet": 0.0, "seller": 1, "date": "2017-01-17T20:37:44.776Z", "done": false, "buyer": null, "recivedAmount": 0.0, "market": 1}, "model": "TPVpnapp.sale", "pk": 85}, {"fields": {"totAmount": 0.0, "sale_code": "Coviran#86", "benefice": 0.0, "devolution": 0.0, "usedWallet": 0.0, "seller": 1, "date": "2017-01-17T20:37:56.686Z", "done": false, "buyer": null, "recivedAmount": 0.0, "market": 1}, "model": "TPVpnapp.sale", "pk": 86}, {"fields": {"totAmount": 0.0, "sale_code": "Coviran#87", "benefice": 0.0, "devolution": 0.0, "usedWallet": 0.0, "seller": 1, "date": "2017-01-17T20:38:02.582Z", "done": false, "buyer": null, "recivedAmount": 0.0, "market": 1}, "model": "TPVpnapp.sale", "pk": 87}, {"fields": {"totAmount": 0.0, "sale_code": "Coviran#88", "benefice": 0.0, "devolution": 0.0, "usedWallet": 0.0, "seller": 1, "date": "2017-01-17T20:38:20.382Z", "done": false, "buyer": null, "recivedAmount": 0.0, "market": 1}, "model": "TPVpnapp.sale", "pk": 88}, {"fields": {"totAmount": 0.0, "sale_code": "Coviran#89", "benefice": 0.0, "devolution": 0.0, "usedWallet": 0.0, "seller": 1, "date": "2017-01-17T20:38:47.917Z", "done": false, "buyer": null, "recivedAmount": 0.0, "market": 1}, "model": "TPVpnapp.sale", "pk": 89}, {"fields": {"totAmount": 0.0, "sale_code": "Coviran#90", "benefice": 0.0, "devolution": 0.0, "usedWallet": 0.0, "seller": 1, "date": "2017-01-17T20:39:20.786Z", "done": false, "buyer": null, "recivedAmount": 0.0, "market": 1}, "model": "TPVpnapp.sale", "pk": 90}, {"fields": {"totAmount": 0.0, "sale_code": "Coviran#91", "benefice": 0.0, "devolution": 0.0, "usedWallet": 0.0, "seller": 1, "date": "2017-01-17T20:39:34.389Z", "done": false, "buyer": null, "recivedAmount": 0.0, "market": 1}, "model": "TPVpnapp.sale", "pk": 91}, {"fields": {"totAmount": 0.0, "sale_code": "Coviran#92", "benefice": 0.0, "devolution": 0.0, "usedWallet": 0.0, "seller": 1, "date": "2017-01-17T20:39:40.473Z", "done": false, "buyer": null, "recivedAmount": 0.0, "market": 1}, "model": "TPVpnapp.sale", "pk": 92}, {"fields": {"totAmount": 0.0, "sale_code": "Coviran#93", "benefice": 0.0, "devolution": 0.0, "usedWallet": 0.0, "seller": 1, "date": "2017-01-17T20:40:22.535Z", "done": false, "buyer": null, "recivedAmount": 0.0, "market": 1}, "model": "TPVpnapp.sale", "pk": 93}, {"fields": {"totAmount": 0.0, "sale_code": "Coviran#94", "benefice": 0.0, "devolution": 0.0, "usedWallet": 0.0, "seller": 1, "date": "2017-01-17T20:50:39.811Z", "done": false, "buyer": null, "recivedAmount": 0.0, "market": 1}, "model": "TPVpnapp.sale", "pk": 94}, {"fields": {"totAmount": 0.0, "sale_code": "Coviran#95", "benefice": 0.0, "devolution": 0.0, "usedWallet": 0.0, "seller": 1, "date": "2017-01-18T19:01:05.710Z", "done": false, "buyer": null, "recivedAmount": 0.0, "market": 1}, "model": "TPVpnapp.sale", "pk": 95}, {"fields": {"totAmount": 0.0, "sale_code": "Coviran#96", "benefice": 0.0, "devolution": 0.0, "usedWallet": 0.0, "seller": 1, "date": "2017-01-18T19:51:42.351Z", "done": false, "buyer": null, "recivedAmount": 0.0, "market": 1}, "model": "TPVpnapp.sale", "pk": 96}, {"fields": {"totAmount": 0.0, "sale_code": "Coviran#97", "benefice": 0.0, "devolution": 0.0, "usedWallet": 0.0, "seller": 1, "date": "2017-01-18T19:51:48.973Z", "done": false, "buyer": null, "recivedAmount": 0.0, "market": 1}, "model": "TPVpnapp.sale", "pk": 97}, {"fields": {"totAmount": 0.0, "sale_code": "Coviran#98", "benefice": 0.0, "devolution": 0.0, "usedWallet": 0.0, "seller": 1, "date": "2017-01-18T20:19:08.006Z", "done": false, "buyer": null, "recivedAmount": 0.0, "market": 1}, "model": "TPVpnapp.sale", "pk": 98}, {"fields": {"totAmount": 0.0, "sale_code": "Coviran#99", "benefice": 0.0, "devolution": 0.0, "usedWallet": 0.0, "seller": 1, "date": "2017-01-18T20:34:14.407Z", "done": false, "buyer": null, "recivedAmount": 0.0, "market": 1}, "model": "TPVpnapp.sale", "pk": 99}, {"fields": {"sellPrice": 1.99, "amount": 2.0, "product": 1, "totAmount": 3.98, "sale": 1}, "model": "TPVpnapp.productsale", "pk": 1}, {"fields": {"sellPrice": 1.99, "amount": 1.0, "product": 1, "totAmount": 1.99, "sale": 2}, "model": "TPVpnapp.productsale", "pk": 2}, {"fields": {"sellPrice": 1.99, "amount": 1.0, "product": 1, "totAmount": 1.99, "sale": 3}, "model": "TPVpnapp.productsale", "pk": 3}, {"fields": {"sellPrice": 100.0, "amount": 1.0, "product": null, "totAmount": 100.0, "sale": 3}, "model": "TPVpnapp.productsale", "pk": 4}, {"fields": {"sellPrice": 1.99, "amount": 1.0, "product": 1, "totAmount": 1.99, "sale": 4}, "model": "TPVpnapp.productsale", "pk": 5}, {"fields": {"sellPrice": 1.99, "amount": 1.0, "product": 1, "totAmount": 1.99, "sale": 5}, "model": "TPVpnapp.productsale", "pk": 6}, {"fields": {"sellPrice": 1.99, "amount": 1.0, "product": 1, "totAmount": 1.99, "sale": 6}, "model": "TPVpnapp.productsale", "pk": 7}, {"fields": {"sellPrice": 2.99, "amount": 1.0, "product": 2, "totAmount": 2.99, "sale": 7}, "model": "TPVpnapp.productsale", "pk": 8}, {"fields": {"sellPrice": 1.99, "amount": 1.0, "product": 1, "totAmount": 1.99, "sale": 25}, "model": "TPVpnapp.productsale", "pk": 9}, {"fields": {"sellPrice": 1.99, "amount": 1.0, "product": 1, "totAmount": 1.99, "sale": 27}, "model": "TPVpnapp.productsale", "pk": 10}, {"fields": {"sellPrice": 1.99, "amount": 1.0, "product": 1, "totAmount": 1.99, "sale": 28}, "model": "TPVpnapp.productsale", "pk": 11}, {"fields": {"sellPrice": 1.99, "amount": 1.0, "product": 1, "totAmount": 1.99, "sale": 30}, "model": "TPVpnapp.productsale", "pk": 12}, {"fields": {"sellPrice": 2.99, "amount": 1.0, "product": 2, "totAmount": 2.99, "sale": 31}, "model": "TPVpnapp.productsale", "pk": 13}, {"fields": {"typeNote": "normal", "writer": 1, "reciverCli": 1, "content": "Cliente modificado.                                              Datos anteriores;                                              Nombre: Adam Mora Tortajada;                                              DNI: 53598404D;                                              E-mail: None;                                              Telefono: None;                                              Monedero: 10.0", "reciver": null, "date": "2017-01-07T23:44:16.962Z"}, "model": "TPVpnapp.notification", "pk": 1}, {"fields": {"typeNote": "normal", "writer": 1, "reciverCli": 1, "content": "Cliente modificado.                                              Datos anteriores;                                              Nombre: Adam Mora Tortajada;                                              DNI: 53598404D;                                              E-mail: adam.mora.tortajada@gmail.com;                                              Telefono: None;                                              Monedero: 6.0", "reciver": null, "date": "2017-01-07T23:46:08.876Z"}, "model": "TPVpnapp.notification", "pk": 2}, {"fields": {"typeNote": "wallet", "writer": 1, "reciverCli": 1, "content": "Se ma modificado el                                                   monedero del cliente de                                                   6.0\u20ac a                                                   10.0\u20ac", "reciver": null, "date": "2017-01-07T23:46:09.051Z"}, "model": "TPVpnapp.notification", "pk": 3}, {"fields": {"typeNote": "normal", "writer": 1, "reciverCli": 1, "content": "Cliente modificado.                                              Datos anteriores;                                              Nombre: Adam Mora Tortajada;                                              DNI: 53598404D;                                              E-mail: adam.mora.tortajada@gmail.com;                                              Telefono: None;                                              Monedero: 10.0", "reciver": null, "date": "2017-01-08T11:16:00.306Z"}, "model": "TPVpnapp.notification", "pk": 4}, {"fields": {"typeNote": "normal", "writer": 4, "reciverCli": null, "content": "Compra macarrones", "reciver": 1, "date": "2017-01-08T13:09:59.442Z"}, "model": "TPVpnapp.notification", "pk": 5}, {"fields": {"typeNote": "normal", "writer": 3, "reciverCli": null, "content": "Hola paqui", "reciver": 4, "date": "2017-01-08T13:11:47.297Z"}, "model": "TPVpnapp.notification", "pk": 6}, {"fields": {"typeNote": "normal", "writer": 4, "reciverCli": null, "content": "Compra macarrones", "reciver": 1, "date": "2017-01-08T13:21:23.766Z"}, "model": "TPVpnapp.notification", "pk": 7}, {"fields": {"typeNote": "normal", "writer": 3, "reciverCli": null, "content": "Tenemos que comprar mas leche", "reciver": 3, "date": "2017-01-08T13:36:07.148Z"}, "model": "TPVpnapp.notification", "pk": 8}, {"fields": {"typeNote": "normal", "writer": 4, "reciverCli": null, "content": "Siiii", "reciver": 3, "date": "2017-01-08T17:22:37.039Z"}, "model": "TPVpnapp.notification", "pk": 9}, {"fields": {"typeNote": "normal", "writer": 4, "reciverCli": null, "content": "Siiii", "reciver": 3, "date": "2017-01-08T17:23:02.632Z"}, "model": "TPVpnapp.notification", "pk": 10}, {"fields": {"typeNote": "", "writer": null, "reciverCli": null, "content": "jeje", "reciver": null, "date": "2017-01-08T17:45:32.839Z"}, "model": "TPVpnapp.notification", "pk": 11}, {"fields": {"typeNote": "", "writer": null, "reciverCli": null, "content": "juas", "reciver": null, "date": "2017-01-08T17:46:33.545Z"}, "model": "TPVpnapp.notification", "pk": 12}, {"fields": {"typeNote": "normal", "writer": 3, "reciverCli": 1, "content": "Cliente modificado.                                              Datos anteriores;                                              Nombre: Adam Mora Tortajada;                                              DNI: 53598404D;                                              E-mail: adam.mora.tortajada@gmail.com;                                              Telefono: 620965568;                                              Monedero: 0.0", "reciver": null, "date": "2017-01-10T22:43:56.166Z"}, "model": "TPVpnapp.notification", "pk": 13}, {"fields": {"typeNote": "normal", "writer": 3, "reciverCli": 1, "content": "Cliente modificado.                                              Datos anteriores;                                              Nombre: Adam;                                              DNI: 53598404D;                                              E-mail: adam.mora.tortajada@gmail.com;                                              Telefono: 620965568;                                              Monedero: 0.0", "reciver": null, "date": "2017-01-10T22:45:15.548Z"}, "model": "TPVpnapp.notification", "pk": 14}, {"fields": {"typeNote": "normal", "writer": 3, "reciverCli": 2, "content": "Cliente modificado.                                              Datos anteriores;                                              Nombre: Algo;                                              DNI: 45454545D;                                              E-mail: alejo@alejo.com;                                              Telefono: 620965568;                                              Monedero: 1.0", "reciver": null, "date": "2017-01-11T20:18:49.039Z"}, "model": "TPVpnapp.notification", "pk": 15}, {"fields": {"typeNote": "normal", "writer": 3, "reciverCli": 2, "content": "Cliente modificado.                                              Datos anteriores;                                              Nombre: Algo;                                              DNI: 45454545D;                                              E-mail: alejo@alejo.com;                                              Telefono: 620965568;                                              Monedero: 1.0", "reciver": null, "date": "2017-01-11T20:19:13.243Z"}, "model": "TPVpnapp.notification", "pk": 16}, {"fields": {"typeNote": "wallet", "writer": 3, "reciverCli": 2, "content": "Se ma modificado el                                                   monedero del cliente de                                                   1.0\u20ac a                                                   2.0\u20ac", "reciver": null, "date": "2017-01-11T20:19:13.368Z"}, "model": "TPVpnapp.notification", "pk": 17}, {"fields": {"typeNote": "normal", "writer": 3, "reciverCli": 2, "content": "Cliente modificado.                                              Datos anteriores;                                              Nombre: Algo;                                              DNI: 45454545D;                                              E-mail: alejo@alejo.com;                                              Telefono: 620965568;                                              Monedero: 2.0", "reciver": null, "date": "2017-01-11T20:20:50.504Z"}, "model": "TPVpnapp.notification", "pk": 18}, {"fields": {"typeNote": "normal", "writer": 3, "reciverCli": 2, "content": "Cliente modificado.                                              Datos anteriores;                                              Nombre: Algo;                                              DNI: 45454545D;                                              E-mail: alejo@alejo.com;                                              Telefono: 620965568;                                              Monedero: 2.0", "reciver": null, "date": "2017-01-11T20:29:40.826Z"}, "model": "TPVpnapp.notification", "pk": 19}, {"fields": {"typeNote": "normal", "writer": 3, "reciverCli": 2, "content": "Cliente modificado.                                              Datos anteriores;                                              Nombre: Algo;                                              DNI: 45454545D;                                              E-mail: alejo@alejo.com;                                              Telefono: 620965568;                                              Monedero: 2.0", "reciver": null, "date": "2017-01-11T20:30:11.524Z"}, "model": "TPVpnapp.notification", "pk": 20}, {"fields": {"typeNote": "normal", "writer": 3, "reciverCli": 2, "content": "Cliente modificado.                                              Datos anteriores;                                              Nombre: Algo;                                              DNI: 45454545D;                                              E-mail: alejo@alejo.com;                                              Telefono: 620965568;                                              Monedero: 2.0", "reciver": null, "date": "2017-01-11T20:30:21.362Z"}, "model": "TPVpnapp.notification", "pk": 21}, {"fields": {"typeNote": "normal", "writer": 3, "reciverCli": 2, "content": "Cliente modificado.                                              Datos anteriores;                                              Nombre: Algo;                                              DNI: 45454545D;                                              E-mail: alejo@alejo.com;                                              Telefono: 620965568;                                              Monedero: 2.0", "reciver": null, "date": "2017-01-11T20:30:40.467Z"}, "model": "TPVpnapp.notification", "pk": 22}, {"fields": {"typeNote": "normal", "writer": 3, "reciverCli": 2, "content": "Cliente modificado.                                              Datos anteriores;                                              Nombre: Algo;                                              DNI: 45454545D;                                              E-mail: alejo@alejo.com;                                              Telefono: 620965568;                                              Monedero: 2.0", "reciver": null, "date": "2017-01-12T22:14:21.390Z"}, "model": "TPVpnapp.notification", "pk": 23}, {"fields": {"typeNote": "normal", "writer": 3, "reciverCli": 1, "content": "Cliente modificado.                                              Datos anteriores;                                              Nombre: Adam;                                              DNI: 53598404D;                                              E-mail: adam.mora.tortajada@gmail.com;                                              Telefono: 953502433;                                              Monedero: 0.0", "reciver": null, "date": "2017-01-12T22:32:11.207Z"}, "model": "TPVpnapp.notification", "pk": 24}, {"fields": {"typeNote": "normal", "writer": 3, "reciverCli": 1, "content": "Cliente modificado.                                              Datos anteriores;                                              Nombre: Adam;                                              DNI: 53598404D;                                              E-mail: adam.mora.tortajada@gmail.com;                                              Telefono: 953502433;                                              Monedero: 0.0", "reciver": null, "date": "2017-01-12T22:32:24.465Z"}, "model": "TPVpnapp.notification", "pk": 25}, {"fields": {"typeNote": "normal", "writer": 3, "reciverCli": 1, "content": "Cliente modificado.                                              Datos anteriores;                                              Nombre: Adam;                                              DNI: 53598404D;                                              E-mail: adam.mora.tortajada@gmail.com;                                              Telefono: 953502433;                                              Monedero: 0.0", "reciver": null, "date": "2017-01-14T09:42:56.557Z"}, "model": "TPVpnapp.notification", "pk": 26}, {"fields": {"typeNote": "normal", "writer": 1, "reciverCli": null, "content": "<p>Cliente Tamara eliminado satisfactoriamente.             DNI: 30971488Y             Fecha de baja: 2017-01-14 19:00:01.094613             Saldo acumulado: 0.0 ", "reciver": 1, "date": "2017-01-14T18:00:01.095Z"}, "model": "TPVpnapp.notification", "pk": 28}, {"fields": {"typeNote": "normal", "writer": 1, "reciverCli": null, "content": "<p>Cliente M\u00aa Teresa eliminado satisfactoriamente.             DNI: 44351297Y             Fecha de baja: 2017-01-14 19:00:04.804741             Saldo acumulado: 4.14 ", "reciver": 1, "date": "2017-01-14T18:00:04.805Z"}, "model": "TPVpnapp.notification", "pk": 29}, {"fields": {"typeNote": "normal", "writer": 1, "reciverCli": null, "content": "<p>Cliente Tamara eliminado satisfactoriamente.             DNI: 30971488Y             Fecha de baja: 2017-01-17 18:12:02.154528             Saldo acumulado: 0.0 ", "reciver": 1, "date": "2017-01-17T17:12:02.155Z"}, "model": "TPVpnapp.notification", "pk": 30}, {"fields": {"typeNote": "normal", "writer": 1, "reciverCli": null, "content": "<p>Cliente Tamara eliminado satisfactoriamente.             DNI: 30971488Y             Fecha de baja: 2017-01-17 18:14:02.564756             Saldo acumulado: 0.0 ", "reciver": 1, "date": "2017-01-17T17:14:02.565Z"}, "model": "TPVpnapp.notification", "pk": 31}, {"fields": {"typeNote": "normal", "writer": 1, "reciverCli": null, "content": "<p>Cliente Tamara eliminado satisfactoriamente.             DNI: 30971488Y             Fecha de baja: 2017-01-17 19:05:59.054234             Saldo acumulado: 0.0 ", "reciver": 1, "date": "2017-01-17T18:05:59.054Z"}, "model": "TPVpnapp.notification", "pk": 32}, {"fields": {"invoice_header": "<h1 style=\"text-align: center;\">Ticket de Covir&aacute;n</h1>\r\n<h3 style=\"text-align: center;\">Bienvenido a nuestro comercio</h3>\r\n<p>&nbsp;</p>\r\n<p>&nbsp;</p>", "market": 1}, "model": "TPVpnapp.configuration", "pk": 1}, {"fields": {"codename": "add_logentry", "name": "Can add log entry", "content_type": 1}, "model": "auth.permission", "pk": 1}, {"fields": {"codename": "change_logentry", "name": "Can change log entry", "content_type": 1}, "model": "auth.permission", "pk": 2}, {"fields": {"codename": "delete_logentry", "name": "Can delete log entry", "content_type": 1}, "model": "auth.permission", "pk": 3}, {"fields": {"codename": "add_permission", "name": "Can add permission", "content_type": 2}, "model": "auth.permission", "pk": 4}, {"fields": {"codename": "change_permission", "name": "Can change permission", "content_type": 2}, "model": "auth.permission", "pk": 5}, {"fields": {"codename": "delete_permission", "name": "Can delete permission", "content_type": 2}, "model": "auth.permission", "pk": 6}, {"fields": {"codename": "add_group", "name": "Can add group", "content_type": 3}, "model": "auth.permission", "pk": 7}, {"fields": {"codename": "change_group", "name": "Can change group", "content_type": 3}, "model": "auth.permission", "pk": 8}, {"fields": {"codename": "delete_group", "name": "Can delete group", "content_type": 3}, "model": "auth.permission", "pk": 9}, {"fields": {"codename": "add_user", "name": "Can add user", "content_type": 4}, "model": "auth.permission", "pk": 10}, {"fields": {"codename": "change_user", "name": "Can change user", "content_type": 4}, "model": "auth.permission", "pk": 11}, {"fields": {"codename": "delete_user", "name": "Can delete user", "content_type": 4}, "model": "auth.permission", "pk": 12}, {"fields": {"codename": "add_contenttype", "name": "Can add content type", "content_type": 5}, "model": "auth.permission", "pk": 13}, {"fields": {"codename": "change_contenttype", "name": "Can change content type", "content_type": 5}, "model": "auth.permission", "pk": 14}, {"fields": {"codename": "delete_contenttype", "name": "Can delete content type", "content_type": 5}, "model": "auth.permission", "pk": 15}, {"fields": {"codename": "add_session", "name": "Can add session", "content_type": 6}, "model": "auth.permission", "pk": 16}, {"fields": {"codename": "change_session", "name": "Can change session", "content_type": 6}, "model": "auth.permission", "pk": 17}, {"fields": {"codename": "delete_session", "name": "Can delete session", "content_type": 6}, "model": "auth.permission", "pk": 18}, {"fields": {"codename": "add_fulldirection", "name": "Can add full direction", "content_type": 7}, "model": "auth.permission", "pk": 19}, {"fields": {"codename": "change_fulldirection", "name": "Can change full direction", "content_type": 7}, "model": "auth.permission", "pk": 20}, {"fields": {"codename": "delete_fulldirection", "name": "Can delete full direction", "content_type": 7}, "model": "auth.permission", "pk": 21}, {"fields": {"codename": "add_market", "name": "Can add market", "content_type": 8}, "model": "auth.permission", "pk": 22}, {"fields": {"codename": "change_market", "name": "Can change market", "content_type": 8}, "model": "auth.permission", "pk": 23}, {"fields": {"codename": "delete_market", "name": "Can delete market", "content_type": 8}, "model": "auth.permission", "pk": 24}, {"fields": {"codename": "add_provider", "name": "Can add provider", "content_type": 9}, "model": "auth.permission", "pk": 25}, {"fields": {"codename": "change_provider", "name": "Can change provider", "content_type": 9}, "model": "auth.permission", "pk": 26}, {"fields": {"codename": "delete_provider", "name": "Can delete provider", "content_type": 9}, "model": "auth.permission", "pk": 27}, {"fields": {"codename": "add_offer", "name": "Can add offer", "content_type": 10}, "model": "auth.permission", "pk": 28}, {"fields": {"codename": "change_offer", "name": "Can change offer", "content_type": 10}, "model": "auth.permission", "pk": 29}, {"fields": {"codename": "delete_offer", "name": "Can delete offer", "content_type": 10}, "model": "auth.permission", "pk": 30}, {"fields": {"codename": "add_product", "name": "Can add product", "content_type": 11}, "model": "auth.permission", "pk": 31}, {"fields": {"codename": "change_product", "name": "Can change product", "content_type": 11}, "model": "auth.permission", "pk": 32}, {"fields": {"codename": "delete_product", "name": "Can delete product", "content_type": 11}, "model": "auth.permission", "pk": 33}, {"fields": {"codename": "add_worker", "name": "Can add worker", "content_type": 12}, "model": "auth.permission", "pk": 34}, {"fields": {"codename": "change_worker", "name": "Can change worker", "content_type": 12}, "model": "auth.permission", "pk": 35}, {"fields": {"codename": "delete_worker", "name": "Can delete worker", "content_type": 12}, "model": "auth.permission", "pk": 36}, {"fields": {"codename": "add_client", "name": "Can add client", "content_type": 13}, "model": "auth.permission", "pk": 37}, {"fields": {"codename": "change_client", "name": "Can change client", "content_type": 13}, "model": "auth.permission", "pk": 38}, {"fields": {"codename": "delete_client", "name": "Can delete client", "content_type": 13}, "model": "auth.permission", "pk": 39}, {"fields": {"codename": "add_sale", "name": "Can add sale", "content_type": 14}, "model": "auth.permission", "pk": 40}, {"fields": {"codename": "change_sale", "name": "Can change sale", "content_type": 14}, "model": "auth.permission", "pk": 41}, {"fields": {"codename": "delete_sale", "name": "Can delete sale", "content_type": 14}, "model": "auth.permission", "pk": 42}, {"fields": {"codename": "add_productsale", "name": "Can add product sale", "content_type": 15}, "model": "auth.permission", "pk": 43}, {"fields": {"codename": "change_productsale", "name": "Can change product sale", "content_type": 15}, "model": "auth.permission", "pk": 44}, {"fields": {"codename": "delete_productsale", "name": "Can delete product sale", "content_type": 15}, "model": "auth.permission", "pk": 45}, {"fields": {"codename": "add_notification", "name": "Can add notification", "content_type": 16}, "model": "auth.permission", "pk": 46}, {"fields": {"codename": "change_notification", "name": "Can change notification", "content_type": 16}, "model": "auth.permission", "pk": 47}, {"fields": {"codename": "delete_notification", "name": "Can delete notification", "content_type": 16}, "model": "auth.permission", "pk": 48}, {"fields": {"codename": "add_configuration", "name": "Can add configuration", "content_type": 17}, "model": "auth.permission", "pk": 49}, {"fields": {"codename": "change_configuration", "name": "Can change configuration", "content_type": 17}, "model": "auth.permission", "pk": 50}, {"fields": {"codename": "delete_configuration", "name": "Can delete configuration", "content_type": 17}, "model": "auth.permission", "pk": 51}, {"fields": {"codename": "add_corsmodel", "name": "Can add cors model", "content_type": 18}, "model": "auth.permission", "pk": 52}, {"fields": {"codename": "change_corsmodel", "name": "Can change cors model", "content_type": 18}, "model": "auth.permission", "pk": 53}, {"fields": {"codename": "delete_corsmodel", "name": "Can delete cors model", "content_type": 18}, "model": "auth.permission", "pk": 54}, {"fields": {"codename": "add_bankdata", "name": "Can add bank data", "content_type": 19}, "model": "auth.permission", "pk": 55}, {"fields": {"codename": "change_bankdata", "name": "Can change bank data", "content_type": 19}, "model": "auth.permission", "pk": 56}, {"fields": {"codename": "delete_bankdata", "name": "Can delete bank data", "content_type": 19}, "model": "auth.permission", "pk": 57}, {"fields": {"username": "admin", "first_name": "", "last_name": "", "is_active": true, "is_superuser": true, "is_staff": true, "last_login": "2017-01-18T20:22:10.169Z", "groups": [], "user_permissions": [], "password": "pbkdf2_sha256$20000$509NOQyDpEd3$lp9Vvbka61AZzn47DnREuPZyIn7cz+aebFyHhCb40/4=", "email": "adam.mora.tortajada@gmail.com", "date_joined": "2017-01-07T23:29:59.667Z"}, "model": "auth.user", "pk": 1}, {"fields": {"username": "adamora", "first_name": "Adam", "last_name": "Mora Tortajada", "is_active": true, "is_superuser": false, "is_staff": false, "last_login": "2017-01-18T20:34:13.842Z", "groups": [], "user_permissions": [], "password": "pbkdf2_sha256$20000$kQQdLV1COLvC$F9hDGbLUvzCRv1CuBPFkN6ac45WKz+RWpVd4x6XP9TI=", "email": "adam.mora.tortajada@gmail.com", "date_joined": "2017-01-07T23:31:27.180Z"}, "model": "auth.user", "pk": 2}, {"fields": {"username": "alejo", "first_name": "Alex", "last_name": "Mora Tortajada", "is_active": true, "is_superuser": false, "is_staff": false, "last_login": null, "groups": [], "user_permissions": [], "password": "pbkdf2_sha256$20000$DTR5NsYItSh4$DGkfR2YcO+E0O6pDYu3KVyHeJaIaCTItK46BOIHX+xg=", "email": "alejo@alejo.com", "date_joined": "2017-01-08T12:48:29.874Z"}, "model": "auth.user", "pk": 3}, {"fields": {"username": "carlos", "first_name": "Juan Carlos", "last_name": "Mora G\u00f3mez", "is_active": true, "is_superuser": false, "is_staff": false, "last_login": "2017-01-08T12:55:38.558Z", "groups": [], "user_permissions": [], "password": "pbkdf2_sha256$20000$DexkUu4kCLrb$R3il2Db7ZFgZYBuGyjcxuDc3BSR3PalMc15xLXEfufc=", "email": "juancarlosmoragomez@gmail.com", "date_joined": "2017-01-08T12:53:13.317Z"}, "model": "auth.user", "pk": 4}, {"fields": {"username": "paqui", "first_name": "Francisca", "last_name": "Tortajada Rodriguez de Bobada", "is_active": true, "is_superuser": false, "is_staff": false, "last_login": "2017-01-08T13:02:50.612Z", "groups": [], "user_permissions": [], "password": "pbkdf2_sha256$20000$pf8kWl3ezBua$aYGsFt7pjKY2nP3Fa6W20slYvCkdfsfBoQ/m3rhO5Kw=", "email": "paqui@paqui.com", "date_joined": "2017-01-08T12:55:14.788Z"}, "model": "auth.user", "pk": 5}, {"fields": {"tel1": 620965568, "tel2": null, "image": "users/profile/AnMZC6ioVXFb3Kz0dkF5CSOmJar5SkCPOSDWUIQNTRUu.jpg", "dni": "53598404D", "user": 2, "genre": "Hombre", "home": 1, "segSocial": "1", "market": 1}, "model": "TPVpnapp.worker", "pk": 1}, {"fields": {"tel1": 620965841, "tel2": null, "image": "users/default/img.jpg", "dni": "53598499N", "user": 3, "genre": "Hombre", "home": 2, "segSocial": "2", "market": 1}, "model": "TPVpnapp.worker", "pk": 2}, {"fields": {"tel1": 620966966, "tel2": null, "image": "users/default/img.jpg", "dni": "84856775R", "user": 4, "genre": "Hombre", "home": 3, "segSocial": "3", "market": 1}, "model": "TPVpnapp.worker", "pk": 3}, {"fields": {"tel1": 620966179, "tel2": null, "image": "users/default/img.jpg", "dni": "53535454D", "user": 5, "genre": "Mujer", "home": 4, "segSocial": "4", "market": 1}, "model": "TPVpnapp.worker", "pk": 4}, {"fields": {"action_flag": 1, "action_time": "2017-01-07T23:31:00.949Z", "object_repr": "Coviran", "object_id": "1", "change_message": "", "user": 1, "content_type": 8}, "model": "admin.logentry", "pk": 1}, {"fields": {"action_flag": 1, "action_time": "2017-01-07T23:31:27.291Z", "object_repr": "adamora", "object_id": "2", "change_message": "", "user": 1, "content_type": 4}, "model": "admin.logentry", "pk": 2}, {"fields": {"action_flag": 1, "action_time": "2017-01-07T23:36:01.674Z", "object_repr": "1", "object_id": "1", "change_message": "", "user": 1, "content_type": 7}, "model": "admin.logentry", "pk": 3}, {"fields": {"action_flag": 1, "action_time": "2017-01-07T23:36:15.686Z", "object_repr": "adamora", "object_id": "1", "change_message": "", "user": 1, "content_type": 12}, "model": "admin.logentry", "pk": 4}]